"Type","Name","Website","Marketplace","lat","lon"
"Seller","AC3","http://www.ac3.com.au/","https://marketplace.service.gov.au/supplier/130",-33.895,151.191
"Seller","AccessHQ","http://www.accesshq.com","https://marketplace.service.gov.au/supplier/40",-35.316,149.107
"Seller","Accessibility Oz","http://www.accessibilityoz.com","https://marketplace.service.gov.au/supplier/1",-37.803516,145.0328017
"Seller","Adelphi Digital Consulting Group","http://adelphi.digital/","https://marketplace.service.gov.au/supplier/119",-33.886111,151.211111
"Seller","AGContext","http://www.agcontext.com.au/
","https://marketplace.service.gov.au/supplier/169",-35.217222,149.031389
"Seller","Agile Digital","http://www.agiledigital.com.au","https://marketplace.service.gov.au/supplier/120",-35.316,149.107
"Seller","Ajilon Pty Ltd","http://www.ajilon.com.au/","https://marketplace.service.gov.au/supplier/121",-35.307778,149.134444
"Seller","Alcorn","http://alcorngroup.com/about/","https://marketplace.service.gov.au/supplier/41",-27.4697707,153.0251235
"Seller","AMR","http://www.amr-australia.com/","https://marketplace.service.gov.au/supplier/122",-33.8227402,151.1942171
"Seller","Apis","http://www.apisgroup.com.au","https://marketplace.service.gov.au/supplier/124",-35.305092,149.098098
"Seller","Apparent","http://www.apparent.com.au","https://marketplace.service.gov.au/supplier/125",-33.82613,151.20505
"Seller","Araza","http://araza.com.au/","https://marketplace.service.gov.au/supplier/126",-37.8152065,144.963937
"Seller","ARTD Consultants","http://www.artd.com.au","https://marketplace.service.gov.au/supplier/42",-33.8476964,151.0728588
"Seller","Artis Group","http://www.artisgroup.com.au/","https://marketplace.service.gov.au/supplier/127",-33.8227402,151.1942171
"Seller","ASPL","http://www.aspl.net.au/","https://marketplace.service.gov.au/supplier/108",-27.431944,153.065
"Seller","at3am","http://at3am.it/","https://marketplace.service.gov.au/supplier/128",-35.238333,149.153333
"Seller","August","https://www.august.com.au/","https://marketplace.service.gov.au/supplier/109",-37.823,144.998
"Seller","AUREC Human Capital Group","http://www.aurec.com","https://marketplace.service.gov.au/supplier/110",-35.2809368,149.1300092
"Seller","Avanade","http://www.avanade.com","https://marketplace.service.gov.au/supplier/111",-33.87497,151.19635
"Seller","Avocado Consulting","http://www.avocadoconsulting.com.au","https://marketplace.service.gov.au/supplier/112",-33.8688197,151.2092955
"Seller","Avoka Technologies Pty Ltd","http://www.avoka.com/","https://marketplace.service.gov.au/supplier/131",-33.8060158,151.2947775
"Seller","Axica","http://www.axica.com.au/","https://marketplace.service.gov.au/supplier/104",-35.25,149.45
"Seller","Axiomatic Technology","http://www.axiomatic.com.au","https://marketplace.service.gov.au/supplier/294",-27.4697707,153.0251235
"Seller","Azuron","http://www.azuron.com/","https://marketplace.service.gov.au/supplier/113",-33.8704,151.2223
"Seller","Bastion Latitude","http://www.bastionlatitude.com","https://marketplace.service.gov.au/supplier/65",-37.823,144.998
"Seller","Bayfront UX","http://www.bayfrontux.com","https://marketplace.service.gov.au/supplier/134",-33.8889737,151.2502433
"Seller","B.B.E",NA,"https://marketplace.service.gov.au/supplier/135",-37.801111,144.978889
"Seller","Bourne Digital","http://www.bournedigital.com.au/","https://marketplace.service.gov.au/supplier/43",-37.866944,145.083056
"Seller","Briarbird &Co","http://briarbird.com/","https://marketplace.service.gov.au/supplier/136",-37.8152065,144.963937
"Seller","Business Analysts","http://www.busanalysts.com.au/","https://marketplace.service.gov.au/supplier/137",-27.616667,153.133333
"Seller","Callida Consulting","http://www.callida.com.au","https://marketplace.service.gov.au/supplier/138",-35.324722,149.137222
"Seller","Canberra Consulting","http://www.canberraconsulting.com.au","https://marketplace.service.gov.au/supplier/139",-35.2809368,149.1300092
"Seller","Canoniq","http://canoniq.com/","https://marketplace.service.gov.au/supplier/140",-33.8847,151.1573
"Seller","Carter Digital","http://www.carterdigital.com.au","https://marketplace.service.gov.au/supplier/21",-37.801111,144.978889
"Seller","Cathara Consulting","http://catharaconsulting.com/au/","https://marketplace.service.gov.au/supplier/141",-31.9505269,115.8604572
"Seller","cDigital Group","http://www.cDigitalGroup.com","https://marketplace.service.gov.au/supplier/142",-35.333,149.094
"Seller","Codice","http://www.codice.com.au/","https://marketplace.service.gov.au/supplier/143",-27.4697707,153.0251235
"Seller","Cogent Business Solutions","http://www.cogent.com.au","https://marketplace.service.gov.au/supplier/145",-35.3321319,149.1529768
"Seller","Cogility","http://www.cogility.com.au","https://marketplace.service.gov.au/supplier/144",-27.4719308,153.0278943
"Seller","Cogito Group","https://cogitogroup.com.au/","https://marketplace.service.gov.au/supplier/116",-35.244,149.038
"Seller","Cognitia Pty Ltd","http://www.cognitia.biz/","https://marketplace.service.gov.au/supplier/146",-27.45,153.016667
"Seller","Collective Campus","http://collectivecamp.us","https://marketplace.service.gov.au/supplier/147",-37.8152065,144.963937
"Seller","Combase",NA,"https://marketplace.service.gov.au/supplier/148",-33.8847,151.1573
"Seller","Compas Pty Ltd","http://www.compas.com.au/","https://marketplace.service.gov.au/supplier/46",-35.2483373,149.0685761
"Seller","Computer Frameworks","http://www.computerframeworks.com.au","https://marketplace.service.gov.au/supplier/149",-33.8688197,151.2092955
"Seller","Conduct","http://conducthq.com/","https://marketplace.service.gov.au/supplier/79",-37.801111,144.978889
"Seller","Consunet Pty Ltd",NA,"https://marketplace.service.gov.au/supplier/151",-34.9141491,138.5725146
"Seller","Cordelta","http://www.cordelta.com","https://marketplace.service.gov.au/supplier/152",-35.349444,149.090278
"Seller","Craig Walker Design and Innovation","http://www.craigwalker.com.au","https://marketplace.service.gov.au/supplier/153",-33.8825595,151.2131584
"Seller","CSC","http://www.csc.com","https://marketplace.service.gov.au/supplier/47",-33.7772,151.12412
"Seller","CTO Group","http://www.ctogroup.com.au","https://marketplace.service.gov.au/supplier/48",-35.324722,149.137222
"Seller","Cybertrack","http://www.cybertrack.com.au","https://marketplace.service.gov.au/supplier/154",-35.318056,149.125
"Seller","Data Runs Deep","http://www.datarunsdeep.com.au","https://marketplace.service.gov.au/supplier/10",-37.8152065,144.963937
"Seller","Deloitte Touche Tohmatsu","http://www.deloitte.com.au","https://marketplace.service.gov.au/supplier/157",-33.8688197,151.2092955
"Seller","Delv Pty Ltd","http://www.delv.com","https://marketplace.service.gov.au/supplier/158",-35.315556,149.144167
"Seller","Design Managers Australia Pty Ltd (DMA)","http://designmanagers.com.au","https://marketplace.service.gov.au/supplier/11",-35.268611,149.124167
"Seller","DH4","http://www.dh4.com.au","https://marketplace.service.gov.au/supplier/180",-33.829075,151.24409
"Seller","Dialog","http://www.dialog.com.au","https://marketplace.service.gov.au/supplier/159",-35.316,149.107
"Seller","DiUS","http://www.dius.com.au","https://marketplace.service.gov.au/supplier/160",-37.8152065,144.963937
"Seller","Diversus","https://www.diversus.com.au","https://marketplace.service.gov.au/supplier/23",-35.2809368,149.1300092
"Seller","DT Digital Pty Ltd","http://www.dt.com.au","https://marketplace.service.gov.au/supplier/161",-37.8301583,144.9804594
"Seller","Eassure","http://www.eassure.com.au/","https://marketplace.service.gov.au/supplier/163",-37.784,144.986
"Seller","Easter Island Heads","http://www.eiheads.com","https://marketplace.service.gov.au/supplier/50",-37.8019,144.98815
"Seller","eBlueprint","http://www.eblueprint.com.au","https://marketplace.service.gov.au/supplier/164",-37.8152065,144.963937
"Seller","Edgelabs","http://www.edgelabs.com.au","https://marketplace.service.gov.au/supplier/165",-37.801111,144.978889
"Seller","Education Services Australia","http://www.esa.edu.au","https://marketplace.service.gov.au/supplier/29",-37.8152065,144.963937
"Seller","EMC","http://www.emc.com","https://marketplace.service.gov.au/supplier/51",-33.8227402,151.1942171
"Seller","Envista","http://www.envista.com.au","https://marketplace.service.gov.au/supplier/105",-35.3294697,149.1600595
"Seller","F1 Solutions","http://www.f1solutions.com.au","https://marketplace.service.gov.au/supplier/168",-35.268611,149.124167
"Seller","Felix Tjandrawibawa (consultant)",NA,"https://marketplace.service.gov.au/supplier/219",-33.9495,151.2437
"Seller","FinXL IT Professional Services","http://www.finxl.com.au","https://marketplace.service.gov.au/supplier/170",-33.8688197,151.2092955
"Seller","Fivium Pty Limited","http://www.fivium.com","https://marketplace.service.gov.au/supplier/94",-33.82613,151.20505
"Seller","Flaxworks","http://www.flaxworks.com.au","https://marketplace.service.gov.au/supplier/171",-33.8780176,151.2204441
"Seller","Flink Labs Pty Ltd","http://www.flinklabs.com","https://marketplace.service.gov.au/supplier/12",-37.808889,145.078889
"Seller","Folk","http://www.thefolk.com","https://marketplace.service.gov.au/supplier/172",-33.8814,151.1707
"Seller","Foresight IT Consulting Pty Ltd","http://www.foresightconsulting.com.au","https://marketplace.service.gov.au/supplier/173",-35.2809368,149.1300092
"Seller","Form Crowd","http://www.formcrowd.com","https://marketplace.service.gov.au/supplier/106",-27.4697707,153.0251235
"Seller","Fortian","http://www.fortian.com.au","https://marketplace.service.gov.au/supplier/52",-27.393,153.048
"Seller","Fragile to Agile","http://www.fragiletoagile.com.au","https://marketplace.service.gov.au/supplier/30",-34.9284989,138.6007456
"Seller","FutureGov","http://www.wearefuturegov.com","https://marketplace.service.gov.au/supplier/174",-37.8152065,144.963937
"Seller","Geoplex","http://www.geoplex.com.au","https://marketplace.service.gov.au/supplier/175",-35.324722,149.137222
"Seller","GoSource","http://www.gosource.com.au","https://marketplace.service.gov.au/supplier/177",-35.307778,149.134444
"Seller","Gov Law Tech","http://www.govlawtech.com.au","https://marketplace.service.gov.au/supplier/25",-35.268611,149.124167
"Seller","Grant Thornton Australia",NA,"https://marketplace.service.gov.au/supplier/95",-33.8688197,151.2092955
"Seller","Hall & Co Digital","http://www.hallandco.digital","https://marketplace.service.gov.au/supplier/103",-27.501,153.079
"Seller","Haylix","http://www.haylix.com","https://marketplace.service.gov.au/supplier/31",-37.8301583,144.9804594
"Seller","HiTech","http://www.hitechaust.com","https://marketplace.service.gov.au/supplier/181",-33.8688197,151.2092955
"Seller","Holly","http://www.hollysydney.com","https://marketplace.service.gov.au/supplier/199",-33.8780176,151.2204441
"Seller","Horizon Consulting","http://www.horizonconsulting.com.au","https://marketplace.service.gov.au/supplier/183",-33.886111,151.211111
"Seller","HSD","http://www.hsd.com.au","https://marketplace.service.gov.au/supplier/55",-35.2809368,149.1300092
"Seller","Hudson","http://www.hudson.com","https://marketplace.service.gov.au/supplier/185",-35.3075699,149.1099161
"Seller","Icelab","http://www.icelab.com.au","https://marketplace.service.gov.au/supplier/187",-35.2809368,149.1300092
"Seller","IE Digital","http://www.ie.com.au/","https://marketplace.service.gov.au/supplier/188",-37.823,144.998
"Seller","Ignia","http://www.ignia.com.au","https://marketplace.service.gov.au/supplier/189",-31.9505269,115.8604572
"Seller","Independent Voice","http://www.independentvoice.com.au","https://marketplace.service.gov.au/supplier/292",-35.329,149.174
"Seller","INDEX Consultants","http://www.index.com.au","https://marketplace.service.gov.au/supplier/115",-35.2809368,149.1300092
"Seller","Infinite","http://www.infinite.net.au","https://marketplace.service.gov.au/supplier/190",-35.316,149.107
"Seller","Information Professionals","http://www.informpros.com","https://marketplace.service.gov.au/supplier/56",-27.4697707,153.0251235
"Seller","Informed Solutions","http://www.informed.com","https://marketplace.service.gov.au/supplier/191",-33.8688197,151.2092955
"Seller","Infosec Asia Pacific","http://infosec.asia/","https://marketplace.service.gov.au/supplier/92",-35.242,149.077
"Seller","Inlight Media","http://www.inlight.com.au","https://marketplace.service.gov.au/supplier/57",-37.8019,144.98815
"Seller","InteractiveInc Pty Ltd","http://www.interactiveinc.com.au","https://marketplace.service.gov.au/supplier/14",-33.86795,151.22411
"Seller","Internetrix","http://www.internetrix.com.au","https://marketplace.service.gov.au/supplier/193",-33.9377072,151.1397782
"Seller","Intopia","http://intopia.digital/","https://marketplace.service.gov.au/supplier/3",-33.815,151.001111
"Seller","Ionize","http://www.ionize.com.au","https://marketplace.service.gov.au/supplier/59",-35.307778,149.134444
"Seller","IPP Technologies","http://www.ippcs.com.au","https://marketplace.service.gov.au/supplier/60",-33.79242,151.11954
"Seller","Isobar","http://www.isobar.com/au/","https://marketplace.service.gov.au/supplier/300",-33.849291,151.2024125
"Seller","Jian Liu (sole trader)",NA,"https://marketplace.service.gov.au/supplier/32",-33.68162,150.91552
"Seller","Kinexus People","http://www.kineticrecruitment.com.au","https://marketplace.service.gov.au/supplier/54",-33.8688197,151.2092955
"Seller","Kinship Digital Pty Ltd","http://www.kinshipdigital.com","https://marketplace.service.gov.au/supplier/61",-33.83965,151.20541
"Seller","KJR Australia","http://www.kjr.com.au","https://marketplace.service.gov.au/supplier/195",-35.166389,149.143056
"Seller","KND Digital","http://www.knd.com.au","https://marketplace.service.gov.au/supplier/196",-27.451,153.004
"Seller","knowquestion","http://www.knowquestion.com.au","https://marketplace.service.gov.au/supplier/62",-35.225833,149.049444
"Seller","Komosion","https://www.komosion.com/","https://marketplace.service.gov.au/supplier/298",-33.8865002,151.2437606
"Seller","Kul Technologies","http://www.kultech.com.au","https://marketplace.service.gov.au/supplier/198",-37.9178086,144.7477259
"Seller","Ladoo","http://www.ladoo.com.au","https://marketplace.service.gov.au/supplier/64",-37.8152065,144.963937
"Seller","Lisa Cornish (sole trader)",NA,"https://marketplace.service.gov.au/supplier/200",-35.2,149.1425
"Seller","Lookahead Search","http://www.lookahead.com.au","https://marketplace.service.gov.au/supplier/34",-33.8688197,151.2092955
"Seller","Macleod Media","http://www.macleodmedia.com","https://marketplace.service.gov.au/supplier/201",-33.8579067,151.2772841
"Seller","Manpower","http://www.manpower.com.au/","https://marketplace.service.gov.au/supplier/202",-33.8688197,151.2092955
"Seller","MarketScape","http://www.marketscape.net.au","https://marketplace.service.gov.au/supplier/150",-35.234722,149.038333
"Seller","Media Access Australia","http://www.mediaaccess.org.au","https://marketplace.service.gov.au/supplier/205",-33.88223,151.19696
"Seller","Meld Studios","http://www.meldstudios.com.au/","https://marketplace.service.gov.au/supplier/15",-33.8814,151.1707
"Seller","Mercury Project Solutions","http://www.mercuryps.com.au","https://marketplace.service.gov.au/supplier/67",-33.886111,151.211111
"Seller","MetaPM","https://metapm.com.au/","https://marketplace.service.gov.au/supplier/97",-37.8152065,144.963937
"Seller","Morpht","http://www.morpht.com","https://marketplace.service.gov.au/supplier/207",-33.8802901,148.5040115
"Seller","MXA Consulting","http://www.mxaconsulting.com.au","https://marketplace.service.gov.au/supplier/208",-35.402,149.118
"Seller","Neo","http://neoteny.com.au/","https://marketplace.service.gov.au/supplier/209",-33.89334,151.20461
"Seller","Neon Circle","http://www.neoncircle.com.au","https://marketplace.service.gov.au/supplier/28",-33.886111,151.211111
"Seller","NextParadigm","http://www.nextparadigm.com.au","https://marketplace.service.gov.au/supplier/9",-37.8222114,145.0328017
"Seller","Nihilent","http://www.nihilient.com","https://marketplace.service.gov.au/supplier/210",-33.83965,151.20541
"Seller","Nomat","http://www.nomat.com.au","https://marketplace.service.gov.au/supplier/211",-37.8338889,144.963937
"Seller","Nook Studios","http://www.nookstudios.com","https://marketplace.service.gov.au/supplier/68",-33.886111,151.211111
"Seller","Novofy","http://www.novofy.com","https://marketplace.service.gov.au/supplier/212",-33.796,151.238
"Seller","Ntegrity Pty Ltd","http://www.ntegrity.com.au","https://marketplace.service.gov.au/supplier/213",-37.8152065,144.963937
"Seller","Oakton","https://www.oakton.com.au/","https://marketplace.service.gov.au/supplier/118",-35.315556,149.144167
"Seller","Object Consulting","http://www.objectconsulting.com.au","https://marketplace.service.gov.au/supplier/214",-37.8152065,144.963937
"Seller","Ogilvy","http://ogilvy.com.au/","https://marketplace.service.gov.au/supplier/24",-33.8227402,151.1942171
"Seller","OMNILINK","http://www.omnilink.com.au/","https://marketplace.service.gov.au/supplier/215",-33.790362,151.081731
"Seller","Orchestrate","http://www.orchestrate.com.au","https://marketplace.service.gov.au/supplier/216",-33.88101,151.25253
"Seller","ORIMA Research","http://www.orima.com","https://marketplace.service.gov.au/supplier/70",-37.8301583,144.9804594
"Seller","Our Epiphany","http://www.ourepiphany.com.au","https://marketplace.service.gov.au/supplier/217",-27.973794,153.4183144
"Seller","Outware Systems Pty Ltd","http://www.outware.com.au","https://marketplace.service.gov.au/supplier/71",-37.8152065,144.963937
"Seller","Oxide Interactive","http://www.oxideinteractive.com.au","https://marketplace.service.gov.au/supplier/203",-35.315556,149.144167
"Seller","Panalysis","http://www.panalysis.com","https://marketplace.service.gov.au/supplier/27",-33.83965,151.20541
"Seller","Paper Giant","http://www.papergiant.net","https://marketplace.service.gov.au/supplier/72",-37.8152065,144.963937
"Seller","Partners in Performance (PIP)","http://www.pipint.com","https://marketplace.service.gov.au/supplier/218",-33.8688197,151.2092955
"Seller","Paxus","http://www.paxus.com.au","https://marketplace.service.gov.au/supplier/220",-35.3075699,149.1099161
"Seller","PaykelSDS","http://www.paykelsds.com.au","https://marketplace.service.gov.au/supplier/73",-33.83965,151.20541
"Seller","Pen10","http://www.penten.com","https://marketplace.service.gov.au/supplier/5",-35.271944,149.135556
"Seller","Peoplebank","http://www.peoplebank.com.au","https://marketplace.service.gov.au/supplier/221",-35.2809368,149.1300092
"Seller","Performance Assurance","http://www.performance-assurance.com.au","https://marketplace.service.gov.au/supplier/222",-35.2809368,149.1300092
"Seller","Permuto","http://www.permuto.com.au","https://marketplace.service.gov.au/supplier/295",-33.8688197,151.2092955
"Seller","PHC Projects Pty Ltd","http://www.phcprojects.com.au","https://marketplace.service.gov.au/supplier/98",-31.9505269,115.8604572
"Seller","Phoenix Media Group","http://www.phoenixmg.com.au","https://marketplace.service.gov.au/supplier/224",-35.271944,149.135556
"Seller","Portable","http://www.portable.com.au","https://marketplace.service.gov.au/supplier/225",-37.8019,144.98815
"Seller","PragmaTeam","http://www.pragma.team","https://marketplace.service.gov.au/supplier/99",-33.8814,151.1707
"Seller","Praxis International","http://www.hellopraxis.com","https://marketplace.service.gov.au/supplier/228",-33.8688197,151.2092955
"Seller","Predicate Partners","http://www.predicatepartners.com.au","https://marketplace.service.gov.au/supplier/229",-35.2809368,149.1300092
"Seller","PreviousNext","http://www.previousnext.com.au","https://marketplace.service.gov.au/supplier/100",-33.633061,151.329329
"Seller","Programmed","http://www.programmed.com.au","https://marketplace.service.gov.au/supplier/77",-35.325,149.077778
"Seller","Projective People","http://www.projective.com.au","https://marketplace.service.gov.au/supplier/232",-35.1747,149.0959
"Seller","Proto Partners","http://www.protopartners.com.au","https://marketplace.service.gov.au/supplier/101",-33.83965,151.20541
"Seller","Randstad Pty Ltd","http://www.randstad.com.au","https://marketplace.service.gov.au/supplier/234",-33.8688197,151.2092955
"Seller","Razor IT Systems","http://www.razorit.com.au","https://marketplace.service.gov.au/supplier/235",-35.259167,149.121111
"Seller","Recon Solutions",NA,"https://marketplace.service.gov.au/supplier/4",-27.4697707,153.0251235
"Seller","Recordkeeping Innovation","http://www.records.com.au","https://marketplace.service.gov.au/supplier/238",-34.9864826,149.7175035
"Seller","Redcore Solutions","http://www.redcore.com.au","https://marketplace.service.gov.au/supplier/239",-35.307778,149.134444
"Seller","Redrollers Research","http://www.redrollers.com.au","https://marketplace.service.gov.au/supplier/240",-33.9051,151.1551
"Seller","RedWolf Consulting","http://www.redwolfconsulting.com.au","https://marketplace.service.gov.au/supplier/226",-37.864,144.982
"Seller","Robert Walters","http://www.robertwalters.com.au","https://marketplace.service.gov.au/supplier/74",-33.8688197,151.2092955
"Seller","Roll Inn Recruitment","http://www.rollinn.com.au","https://marketplace.service.gov.au/supplier/17",-35.366667,149.233333
"Seller","Rowdy Digital","http://www.getgoosebumps.com.au","https://marketplace.service.gov.au/supplier/53",-35.2809368,149.1300092
"Seller","RSM Australia Pty Ltd","http://www.rsm.com.au","https://marketplace.service.gov.au/supplier/242",-35.316,149.107
"Seller","Salsa Digital","http://www.salsadigital.com.au","https://marketplace.service.gov.au/supplier/75",-37.8019,144.98815
"Seller","Salted Signal","http://www.saltedsignal.com.au","https://marketplace.service.gov.au/supplier/18",-37.8152065,144.963937
"Seller","Sandbox Company","http://www.sandboxcompany.com.au","https://marketplace.service.gov.au/supplier/76",-33.72136,151.16844
"Seller","Search365","http://www.search365.com.au","https://marketplace.service.gov.au/supplier/299",-33.73,151.22
"Seller","Sedha Consulting","http://www.sedhaconsulting.com","https://marketplace.service.gov.au/supplier/246",-33.7251,151.04931
"Seller","Sensory7","http://www.sensory7.com","https://marketplace.service.gov.au/supplier/247",-35.2525,149.139722
"Seller","ServeGate","http://www.servegate.com.au","https://marketplace.service.gov.au/supplier/6",-35.329,149.174
"Seller","Silverstone Edge","http://www.silverstoneedge.com.au","https://marketplace.service.gov.au/supplier/248",-35.288056,149.153889
"Seller","Simplogy","http://www.simplogy.com","https://marketplace.service.gov.au/supplier/249",-33.7241591,150.8889765
"Seller","Sitback Solutions","http://www.sitback.com.au","https://marketplace.service.gov.au/supplier/33",-33.85985,151.20901
"Seller","Small Multiples","http://www.small.mu","https://marketplace.service.gov.au/supplier/250",-33.886111,151.211111
"Seller","Small Studio","http://www.smallstudio.com.au","https://marketplace.service.gov.au/supplier/251",-37.743,145.008
"Seller","SmartWard","http://www.smartward.com.au","https://marketplace.service.gov.au/supplier/78",-35.242,149.077
"Seller","SMS Management & Technology","http://www.smsmt.com","https://marketplace.service.gov.au/supplier/252",-33.8688197,151.2092955
"Seller","SoftLabs","http://www.softlabsglobal.com/","https://marketplace.service.gov.au/supplier/253",-33.8688197,151.2092955
"Seller","Solutions Digital","http://www.solutionsoutsourced.com.au/","https://marketplace.service.gov.au/supplier/296",-34.054444,150.695833
"Seller","Southern Cross Computing Pty Ltd","http://www.scc.com.au","https://marketplace.service.gov.au/supplier/255",-35.3169811,149.1103582
"Seller","Space66","http://www.space66.com","https://marketplace.service.gov.au/supplier/256",-33.88101,151.25253
"Seller","Spark Digital","http://www.sparkdigital.com.au","https://marketplace.service.gov.au/supplier/257",-37.823,144.998
"Seller","Speedwell","http://www.speedwell.com.au","https://marketplace.service.gov.au/supplier/7",-27.4565,153.0345
"Seller","Squiz","http://www.squiz.com.au","https://marketplace.service.gov.au/supplier/102",-35.2809368,149.1300092
"Seller","Stacey Brown Consulting",NA,"https://marketplace.service.gov.au/supplier/36",-33.76864,151.16347
"Seller","Stark & Wayne","http://www.starkandwayne.com","https://marketplace.service.gov.au/supplier/8",-27.531716,152.968225
"Seller","StarTech IT Consulting","http://www.startechit.com.au","https://marketplace.service.gov.au/supplier/260",-35.3675,149.111389
"Seller","State of Matter","http://www.sofm.com.au","https://marketplace.service.gov.au/supplier/261",-37.8070353,144.9659078
"Seller","Stead Lane","http://www.steadlane.com.au","https://marketplace.service.gov.au/supplier/182",-27.973794,153.4183144
"Seller","Step Two Designs","http://www.steptwo.com.au","https://marketplace.service.gov.au/supplier/262",-33.8863,151.1999
"Seller","Strategic Data","http://www.strategicdata.com.au","https://marketplace.service.gov.au/supplier/263",-37.801111,144.978889
"Seller","Strategic Executive Solutions","http://www.strategicexecutive.com","https://marketplace.service.gov.au/supplier/206",-37.829,144.957
"Seller","Strategic Projects Partners","http://www.spp.com.au","https://marketplace.service.gov.au/supplier/80",-37.8152065,144.963937
"Seller","Strategic Reform","http://www.strategicreform.com.au","https://marketplace.service.gov.au/supplier/264",-35.2792021,149.1414924
"Seller","Studio Thick","http://www.studiothick.com","https://marketplace.service.gov.au/supplier/265",-37.801111,144.978889
"Seller","Symphony3","http://www.symphony3.com","https://marketplace.service.gov.au/supplier/266",-37.817,144.946
"Seller","Talent International (ACT) Pty Ltd","http://www.talentinternational.com.au","https://marketplace.service.gov.au/supplier/81",-33.8688197,151.2092955
"Seller","Talentpool Recruitment","http://www.tprecruitment.com.au","https://marketplace.service.gov.au/supplier/268",-33.8780176,151.2204441
"Seller","Tech Mahindra","http://www.techmahindra.com","https://marketplace.service.gov.au/supplier/82",-35.2809368,149.1300092
"Seller","Technocrat Pty Ltd","http://www.technocrat.com.au","https://marketplace.service.gov.au/supplier/271",-35.2809368,149.1300092
"Seller","Technovate Strategic Solutions","http://www.technovate.com.au","https://marketplace.service.gov.au/supplier/83",-35.242,149.077
"Seller","Terra Firma Business Consulting","http://www.terrafirma.com.au","https://marketplace.service.gov.au/supplier/273",-37.8152065,144.963937
"Seller","The Architecture Practice","http://www.thearchitecturepractice.com.au","https://marketplace.service.gov.au/supplier/269",-35.186,149.092
"Seller","The Behavioural Architects Pty Ltd","http://www.thebearchitects.com.au","https://marketplace.service.gov.au/supplier/84",-33.84765,151.21201
"Seller","The Customer Experience Company","http://www.customerexperience.com.au","https://marketplace.service.gov.au/supplier/85",-33.8688197,151.2092955
"Seller","The Frame Group","http://www.framegroup.com.au/","https://marketplace.service.gov.au/supplier/275",-33.8688197,151.2092955
"Seller","The Gruden Group","http://www.gruden.com","https://marketplace.service.gov.au/supplier/178",-33.8688197,151.2092955
"Seller","The Information Access Group","http://www.informationaccessgroup.com","https://marketplace.service.gov.au/supplier/13",-37.915,145.13
"Seller","The Mark Agency","http://www.themarkagency.com.au","https://marketplace.service.gov.au/supplier/277",-35.4454931,149.0867175
"Seller","The NTF Group","http://www.ntf.com.au","https://marketplace.service.gov.au/supplier/278",-33.8688197,151.2092955
"Seller","The Recruitment Hive","http://www.recruitmenthive.com.au","https://marketplace.service.gov.au/supplier/37",-35.3075,149.124417
"Seller","ThinkPlace","http://www.thinkplace.com.au","https://marketplace.service.gov.au/supplier/279",-35.315556,149.144167
"Seller","Thinkstream","http://www.thinkstream.com.au","https://marketplace.service.gov.au/supplier/280",-35.316,149.107
"Seller","ThoughtWorks","http://www.thoughtworks.com","https://marketplace.service.gov.au/supplier/282",-33.8688197,151.2092955
"Seller","Threefold Partners","http://www.thinkthreefold.com","https://marketplace.service.gov.au/supplier/38",-37.842,144.95
"Seller","Tigerspike","http://www.tigerspike.com.au","https://marketplace.service.gov.au/supplier/270",-33.886111,151.211111
"Seller","TNS","http://www.tnsglobal.com","https://marketplace.service.gov.au/supplier/39",-33.83965,151.20541
"Seller","Tobias & Tobias","http://www.tobiasandtobias.com.au","https://marketplace.service.gov.au/supplier/284",-33.783,151.2622
"Seller","TP&G Solutions P/L",NA,"https://marketplace.service.gov.au/supplier/272",-35.394444,149.068611
"Seller","U1 Group","http://www.u1group.com","https://marketplace.service.gov.au/supplier/87",-37.8338889,144.963937
"Seller","ustwo","http://www.ustwo.com","https://marketplace.service.gov.au/supplier/285",-33.886111,151.211111
"Seller","Valtech","http://www.valtech.com","https://marketplace.service.gov.au/supplier/286",-33.8863,151.1999
"Seller","Velvet Onion","http://www.velvetonion.com","https://marketplace.service.gov.au/supplier/287",-33.886111,151.211111
"Seller","Veritec","http://www.veritec.com.au","https://marketplace.service.gov.au/supplier/288",-35.242,149.077
"Seller","Vision Australia","http://www.visionaustralia.org","https://marketplace.service.gov.au/supplier/88",-33.89059,151.09246
"Seller","Visual Metrics","http://www.visualmetrics.com.au","https://marketplace.service.gov.au/supplier/289",-33.88477,151.22621
"Seller","Voxpop Enterprises Pty Ltd",NA,"https://marketplace.service.gov.au/supplier/49",-28.0352644,151.9803789
"Seller","Weave Web Communications","http://www.weaveweb.com.au","https://marketplace.service.gov.au/supplier/89",-37.769412,144.9804594
"Seller","Whizdom Pty Ltd","http://www.whizdom.com.au","https://marketplace.service.gov.au/supplier/290",-35.221,149.106
"Seller","Wunderman-Bienalto","http://www.bienalto.com","https://marketplace.service.gov.au/supplier/114",-33.8688197,151.2092955
"Seller","Zen Ex Machina","http://www.zenexmachina.com","https://marketplace.service.gov.au/supplier/133",-35.324722,149.137222
"Seller","Zoak Solutions","http://www.zoak.solutions","https://marketplace.service.gov.au/supplier/297",-37.8152065,144.963937
"Seller","Zoodata","http://www.zoodata.com.au","https://marketplace.service.gov.au/supplier/19",-31.9505269,115.8604572
